{
"type": "FeatureCollection",
                                                                                
"features": [
{ "type": "Feature", "properties": { "Name": "1 Cañada Oscura (Contepec)", "Description": "" }, "geometry": { "type": "Point", "coordinates": [ -100.1352778, 19.9725, 0.0 ] } }
,
{ "type": "Feature", "properties": { "Name": "2 El Zacatonal", "Description": "" }, "geometry": { "type": "Point", "coordinates": [ -100.2872222, 19.66944444, 0.0 ] } }
,
{ "type": "Feature", "properties": { "Name": "3 Mojonera Alta", "Description": "" }, "geometry": { "type": "Point", "coordinates": [ -100.2941667, 19.67277778, 0.0 ] } }
,
{ "type": "Feature", "properties": { "Name": "4 Llano del Toro", "Description": "" }, "geometry": { "type": "Point", "coordinates": [ -100.3036111, 19.67472222, 0.0 ] } }
,
{ "type": "Feature", "properties": { "Name": "5 Llano del Koala", "Description": "" }, "geometry": { "type": "Point", "coordinates": [ -100.3136111, 19.68666667, 0.0 ] } }
,
{ "type": "Feature", "properties": { "Name": "6 El Rosario", "Description": "" }, "geometry": { "type": "Point", "coordinates": [ -100.265, 19.59305556, 0.0 ] } }
,
{ "type": "Feature", "properties": { "Name": "7 Piedra Boluda (La Mesa)", "Description": "" }, "geometry": { "type": "Point", "coordinates": [ -100.2394444, 19.56972222, 0.0 ] } }
,
{ "type": "Feature", "properties": { "Name": "8 Cerro Blanco", "Description": "" }, "geometry": { "type": "Point", "coordinates": [ -100.24, 19.57027778, 0.0 ] } }
,
{ "type": "Feature", "properties": { "Name": "9 El Picacho", "Description": "" }, "geometry": { "type": "Point", "coordinates": [ -100.2038889, 19.55888889, 0.0 ] } }
,
{ "type": "Feature", "properties": { "Name": "10 Los Trozos (Carpinteros)", "Description": "" }, "geometry": { "type": "Point", "coordinates": [ -100.3005556, 19.52138889, 0.0 ] } }
,
{ "type": "Feature", "properties": { "Name": "11 Lomas de Aparicio (Cresencio Morales)", "Description": "" }, "geometry": { "type": "Point", "coordinates": [ -100.2038889, 19.50694444, 0.0 ] } }
,
{ "type": "Feature", "properties": { "Name": "12 El Cedral", "Description": "" }, "geometry": { "type": "Point", "coordinates": [ -100.2575, 19.38694444, 0.0 ] } }
,
{ "type": "Feature", "properties": { "Name": "13 Carditos", "Description": "" }, "geometry": { "type": "Point", "coordinates": [ -100.2611111, 19.38833333, 0.0 ] } }
,
{ "type": "Feature", "properties": { "Name": "14 Santa Teresa", "Description": "" }, "geometry": { "type": "Point", "coordinates": [ -100.2316667, 19.41, 0.0 ] } }
,
{ "type": "Feature", "properties": { "Name": "15 Las Lagunitas", "Description": "" }, "geometry": { "type": "Point", "coordinates": [ -100.2716667, 19.38833333, 0.0 ] } }
,
{ "type": "Feature", "properties": { "Name": "16 Puerto Morillo", "Description": "" }, "geometry": { "type": "Point", "coordinates": [ -100.8166667, 19.68138889, 0.0 ] } }
,
{ "type": "Feature", "properties": { "Name": "17 Pizcuaro", "Description": "" }, "geometry": { "type": "Point", "coordinates": [ -100.6491667, 19.79583333, 0.0 ] } }
,
{ "type": "Feature", "properties": { "Name": "18 San Andrés", "Description": "" }, "geometry": { "type": "Point", "coordinates": [ -100.8108333, 19.70805556, 0.0 ] } }
,
{ "type": "Feature", "properties": { "Name": "19 Puerto Bermeo", "Description": "" }, "geometry": { "type": "Point", "coordinates": [ -100.1472222, 19.74333333, 0.0 ] } }
,
{ "type": "Feature", "properties": { "Name": "20 Piedra Herrada (San Mateo Almololoa)", "Description": "" }, "geometry": { "type": "Point", "coordinates": [ -99.846666666666664, 19.1075, 0.0 ] } }
,
{ "type": "Feature", "properties": { "Name": "21 San Francisco Oxtotilpan", "Description": "" }, "geometry": { "type": "Point", "coordinates": [ -99.914166666666674, 19.1975, 0.0 ] } }
,
{ "type": "Feature", "properties": { "Name": "22 Palomas (San Antonio Albarranes)", "Description": "" }, "geometry": { "type": "Point", "coordinates": [ -99.868333333333339, 19.09805556, 0.0 ] } }
,
{ "type": "Feature", "properties": { "Name": "23 Atlauta", "Description": "" }, "geometry": { "type": "Point", "coordinates": [ -98.69361111, 18.99027778, 0.0 ] } }

]
}
